{"type":"FeatureCollection", "features":[
{"type":"Feature","geometry":{"type":"Point","coordinates":[1476903.285784632,534351.74579373]},"properties":{"NUM":42,"NAME":"FIRE STATION 42","ADDRESS":"5620 Central Av","LATITUDE":35205177,"LONGITUDE":80752276,"PHONE_1":" 704-432-1813","PHONE_2":"704-432-1801","Units":1,"Battalion":4,"BattHQ":1,"Long":"80° 45' 4.55\" W","Lat":"35° 12' 19.99\" N","Council":5,"YearBuilt":2011,"TOPO":"P-29","zip":"28212","po_name":"CHARLOTTE","State":"NC"}},
{"type":"Feature","geometry":{"type":"Point","coordinates":[1487436.4576316327,559845.8995297253]},"properties":{"NUM":34,"NAME":"FIRE STATION 34","ADDRESS":"2824 Rocky River Rd","LATITUDE":35276093,"LONGITUDE":80718019,"PHONE_1":"704-432-0935","PHONE_2":"704-432-0936","Units":1,"Battalion":2,"BattHQ":0,"Long":"80° 43' 2.94\" W","Lat":"35° 16' 33.95\" N","Council":4,"YearBuilt":2001,"TOPO":"R-23","zip":"28215","po_name":"CHARLOTTE","State":"NC"}},
{"type":"Feature","geometry":{"type":"Point","coordinates":[1434095.9583417177,507435.44463956356]},"properties":{"NUM":20,"NAME":"FIRE STATION 20","ADDRESS":"9400 Nations Ford Rd","LATITUDE":35129941,"LONGITUDE":80892222,"PHONE_1":"704-525-3217","PHONE_2":"704-525-4022","Units":1,"Battalion":5,"BattHQ":1,"Long":"80° 53' 34.17\" W","Lat":"35° 7' 46.01\" N","Council":3,"YearBuilt":1974,"TOPO":"I-36","zip":"28273","po_name":"CHARLOTTE","State":"NC"}},
{"type":"Feature","geometry":{"type":"Point","coordinates":[1447691.7753101438,511036.25010198355]},"properties":{"NUM":16,"NAME":"FIRE STATION 16","ADDRESS":"6623 Park South Dr","LATITUDE":35140168,"LONGITUDE":80847990,"PHONE_1":"704-554-7363","PHONE_2":"704-554-7364","Units":2,"Battalion":5,"BattHQ":0,"Long":"80° 50' 51.30\" W","Lat":"35° 8' 24.16\" N","Council":6,"YearBuilt":1966,"TOPO":"K-35","zip":"28210","po_name":"CHARLOTTE","State":"NC"}},
{"type":"Feature","geometry":{"type":"Point","coordinates":[1461079.9926281422,549754.025356561]},"properties":{"NUM":7,"NAME":"FIRE STATION 7","ADDRESS":"3210 N Davidson St","LATITUDE":35247198,"LONGITUDE":80805419,"PHONE_1":"704-336-2851","PHONE_2":"704-336-2502","Units":1,"Battalion":1,"BattHQ":0,"Long":"80° 48' 18.59\" W","Lat":"35° 14' 49.51\" N","Council":1,"YearBuilt":1935,"TOPO":"M-25","zip":"28205","po_name":"CHARLOTTE","State":"NC"}},
{"type":"Feature","geometry":{"type":"Point","coordinates":[1459084.3496378064,539457.839584142]},"properties":{"NUM":8,"NAME":"FIRE STATION 8","ADDRESS":"1201 The Plaza","LATITUDE":35218282,"LONGITUDE":80811135,"PHONE_1":"704-336-2152","PHONE_2":"704-336-2598","Units":1,"Battalion":1,"BattHQ":0,"Long":"80° 48' 40.38\" W","Lat":"35° 13' 7.33\" N","Council":1,"YearBuilt":1948,"TOPO":"M-28","zip":"28205","po_name":"CHARLOTTE","State":"NC"}},
{"type":"Feature","geometry":{"type":"Point","coordinates":[1489228.5390212238,576532.7339381427]},"properties":{"NUM":35,"NAME":"FIRE STATION 35","ADDRESS":"1120 Pavilion Bv","LATITUDE":35322087,"LONGITUDE":80711902,"PHONE_1":"704-432-0931","PHONE_2":"704-432-0932","Units":1,"Battalion":2,"BattHQ":0,"Long":"80° 42' 44.80\" W","Lat":"35° 19' 19.29\" N","Council":4,"YearBuilt":2001,"TOPO":"R-19","zip":"28262","po_name":"CHARLOTTE","State":"NC"}},
{"type":"Feature","geometry":{"type":"Point","coordinates":[1421708.1058208942,530543.9915982336]},"properties":{"NUM":30,"NAME":"FIRE STATION 30","ADDRESS":"4707 Belle-Oaks Dr","LATITUDE":35192507,"LONGITUDE":80935459,"PHONE_1":"704-357-3791","PHONE_2":"704-357-3693","Units":1,"Battalion":8,"BattHQ":0,"Long":"80° 56' 8.72\" W","Lat":"35° 11' 32.19\" N","Council":3,"YearBuilt":1991,"TOPO":"G-30","zip":"28217","po_name":"CHARLOTTE","State":"NC"}},
{"type":"Feature","geometry":{"type":"Point","coordinates":[1444248.2444675565,546443.8426724821]},"properties":{"NUM":5,"NAME":"FIRE STATION 5","ADDRESS":"224  Wesley Heights Wy","LATITUDE":35236932,"LONGITUDE":80861260,"PHONE_1":"704-336-2499","PHONE_2":"704-336-2450","Units":1,"Battalion":3,"BattHQ":0,"Long":"80° 51' 40.76\" W","Lat":"35° 14' 13.70\" N","Council":2,"YearBuilt":1929,"TOPO":"K-26","zip":"28208","po_name":"CHARLOTTE","State":"NC"}},
{"type":"Feature","geometry":{"type":"Point","coordinates":[1464128.966517061,565000.3252444714]},"properties":{"NUM":22,"NAME":"FIRE STATION 22","ADDRESS":"1917 W Sugar Creek Rd","LATITUDE":35289212,"LONGITUDE":80795423,"PHONE_1":"704-597-8840","PHONE_2":"704-597-8841","Units":1,"Battalion":2,"BattHQ":0,"Long":"80° 47' 45.15\" W","Lat":"35° 17' 20.85\" N","Council":4,"YearBuilt":1978,"TOPO":"N-21","zip":"28262","po_name":"CHARLOTTE","State":"NC"}},
{"type":"Feature","geometry":{"type":"Point","coordinates":[1467191.0725975484,510031.3935158998]},"properties":{"NUM":19,"NAME":"FIRE STATION 19","ADDRESS":"1016 Sardis Ln","LATITUDE":35137992,"LONGITUDE":80782193,"PHONE_1":"704-432-6170","PHONE_2":"704-432-7015","Units":1,"Battalion":7,"BattHQ":0,"Long":"80° 46' 56.31\" W","Lat":"35° 8' 17.75\" N","Council":6,"YearBuilt":1974,"TOPO":"N-35","zip":"28270","po_name":"CHARLOTTE","State":"NC"}},
{"type":"Feature","geometry":{"type":"Point","coordinates":[1420903.4738999754,557022.3497306406]},"properties":{"NUM":21,"NAME":"FIRE STATION 21","ADDRESS":"1023 Little Rock Rd","LATITUDE":35264966,"LONGITUDE":80940510,"PHONE_1":"704-399-1532","PHONE_2":"704-399-1533","Units":1,"Battalion":3,"BattHQ":0,"Long":"80° 56' 24.65\" W","Lat":"35° 15' 53.90\" N","Council":3,"YearBuilt":1978,"TOPO":"G-23","zip":"28214","po_name":"CHARLOTTE","State":"NC"}},
{"type":"Feature","geometry":{"type":"Point","coordinates":[1439710.9884502143,523373.41899713874]},"properties":{"NUM":12,"NAME":"FIRE STATION 12","ADDRESS":"420 Inwood Dr","LATITUDE":35173805,"LONGITUDE":80875083,"PHONE_1":"704-523-3732","PHONE_2":"704-523-2433","Units":1,"Battalion":5,"BattHQ":0,"Long":"80° 52' 30.20\" W","Lat":"35° 10' 24.69\" N","Council":6,"YearBuilt":1961,"TOPO":"J-32","zip":"28209","po_name":"CHARLOTTE","State":"NC"}},
{"type":"Feature","geometry":{"type":"Point","coordinates":[1474819.014690727,582512.6189599782]},"properties":{"NUM":36,"NAME":"FIRE STATION 36","ADDRESS":"2325 W Mallard Creek Church Rd","LATITUDE":35338146,"LONGITUDE":80761055,"PHONE_1":"704-432-1782","PHONE_2":"704-432-1783","Units":1,"Battalion":2,"BattHQ":0,"Long":"80° 45' 39.96\" W","Lat":"35° 20' 15.93\" N","Council":4,"YearBuilt":2004,"TOPO":"P-17","zip":"28262","po_name":"CHARLOTTE","State":"NC"}},
{"type":"Feature","geometry":{"type":"Point","coordinates":[1413911.4314536303,575403.939607814]},"properties":{"NUM":33,"NAME":"FIRE STATION 33","ADDRESS":"2001 Mt Holly-Huntersville Rd","LATITUDE":35314342,"LONGITUDE":80965242,"PHONE_1":"704-432-0688","PHONE_2":"704-432-0690","Units":2,"Battalion":6,"BattHQ":0,"Long":"80° 57' 53.35\" W","Lat":"35° 18' 54.33\" N","Council":2,"YearBuilt":2001,"TOPO":"E-19","zip":"28214","po_name":"CHARLOTTE","State":"NC"}},
{"type":"Feature","geometry":{"type":"Point","coordinates":[1473069.2271798104,483119.2990462333]},"properties":{"NUM":9,"NAME":"FIRE STATION 9","ADDRESS":"4529 McKee Rd","LATITUDE":35065086,"LONGITUDE":80761015,"PHONE_1":"704-432-6874","PHONE_2":"704-432-6875","Units":1,"Battalion":7,"BattHQ":0,"Long":"80° 45' 39.79\" W","Lat":"35° 3' 52.62\" N","Council":7,"YearBuilt":1985,"TOPO":"O-42","zip":"28270","po_name":"CHARLOTTE","State":"NC"}},
{"type":"Feature","geometry":{"type":"Point","coordinates":[1449909.212804392,491868.5413902253]},"properties":{"NUM":24,"NAME":"FIRE STATION 24","ADDRESS":"7132 Pineville-Matthews Rd","LATITUDE":35087146,"LONGITUDE":80839025,"PHONE_1":"704-542-6071","PHONE_2":"704-542-6072","Units":2,"Battalion":7,"BattHQ":0,"Long":"80° 50' 20.33\" W","Lat":"35° 5' 15.00\" N","Council":6,"YearBuilt":1981,"TOPO":"K-40","zip":"28226","po_name":"CHARLOTTE","State":"NC"}},
{"type":"Feature","geometry":{"type":"Point","coordinates":[1414895.48132281,536546.371981889]},"properties":{"NUM":41,"NAME":"FIRE STATION 41","ADDRESS":"5740 West Bv","LATITUDE":35208313,"LONGITUDE":80959216,"PHONE_1":"704-588-0700","PHONE_2":"704-588-0705","Units":2,"Battalion":8,"BattHQ":0,"Long":"80° 57' 32.22\" W","Lat":"35° 12' 30.23\" N","Council":3,"YearBuilt":2010,"TOPO":"F-29","zip":"28208","po_name":"CHARLOTTE","State":"NC"}},
{"type":"Feature","geometry":{"type":"Point","coordinates":[1429750.195707798,572524.8334893882]},"properties":{"NUM":25,"NAME":"FIRE STATION 25","ADDRESS":"6741 Pleasant Grove Rd","LATITUDE":35308282,"LONGITUDE":80911412,"PHONE_1":"704-392-8636","PHONE_2":"704-392-8623","Units":1,"Battalion":6,"BattHQ":1,"Long":"80° 54' 41.57\" W","Lat":"35° 18' 28.91\" N","Council":2,"YearBuilt":1988,"TOPO":"H-20","zip":"28216","po_name":"CHARLOTTE","State":"NC"}},
{"type":"Feature","geometry":{"type":"Point","coordinates":[1468711.6197533011,493982.020759061]},"properties":{"NUM":39,"NAME":"FIRE STATION 39","ADDRESS":"8325 Providence Rd","LATITUDE":35093333,"LONGITUDE":80776667,"PHONE_1":"704-336-4878","PHONE_2":"704-336-4885","Units":1,"Battalion":7,"BattHQ":1,"Long":"80° 46' 34.55\" W","Lat":"35° 5' 39.29\" N","Council":7,"YearBuilt":2008,"TOPO":"O-39","zip":"28270","po_name":"CHARLOTTE","State":"NC"}},
{"type":"Feature","geometry":{"type":"Point","coordinates":[1400914.377723381,513755.9651349783]},"properties":{"NUM":38,"NAME":"FIRE STATION 38","ADDRESS":"12100 Shopton Rd West","LATITUDE":35144722,"LONGITUDE":81003889,"PHONE_1":"704-353-1275","PHONE_2":"704-353-1276","Units":1,"Battalion":5,"BattHQ":0,"Long":"81° 0' 15.15\" W","Lat":"35° 8' 42.08\" N","Council":3,"YearBuilt":2008,"TOPO":"C-34","zip":"28278","po_name":"CHARLOTTE","State":"NC"}},
{"type":"Feature","geometry":{"type":"Point","coordinates":[1450883.1632843018,544414.7328855544]},"properties":{"NUM":4,"NAME":"FIRE STATION 4","ADDRESS":"525 N Church St","LATITUDE":35231787,"LONGITUDE":80838934,"PHONE_1":"704-336-4409","PHONE_2":"704-336-2921","Units":2,"Battalion":1,"BattHQ":0,"Long":"80° 50' 20.33\" W","Lat":"35° 13' 54.86\" N","Council":2,"YearBuilt":1972,"TOPO":"L-27","zip":"28202","po_name":"CHARLOTTE","State":"NC"}},
{"type":"Feature","geometry":{"type":"Point","coordinates":[1445985.0877786428,556634.8721591383]},"properties":{"NUM":18,"NAME":"FIRE STATION 18","ADDRESS":"2337 Dr Webber Av","LATITUDE":35265506,"LONGITUDE":80856121,"PHONE_1":"704-399-2933","PHONE_2":"704-399-2902","Units":2,"Battalion":6,"BattHQ":0,"Long":"80° 51' 22.12\" W","Lat":"35° 15' 54.81\" N","Council":2,"YearBuilt":1970,"TOPO":"K-24","zip":"28216","po_name":"CHARLOTTE","State":"NC"}},
{"type":"Feature","geometry":{"type":"Point","coordinates":[1438903.9657860547,531548.2497603148]},"properties":{"NUM":43,"NAME":"FIRE STATION 43","ADDRESS":"421 Clanton Rd","LATITUDE":35196129,"LONGITUDE":80878723,"PHONE_1":"704-353-1932","PHONE_2":"704-353-1934","Units":1,"Battalion":3,"BattHQ":0,"Long":"80° 52' 43.405\" W","Lat":"35° 11' 46.065\" N","Council":6,"YearBuilt":2020,"TOPO":"J-32","zip":"28217","po_name":"CHARLOTTE","State":"NC"}},
{"type":"Feature","geometry":{"type":"Point","coordinates":[1436322.8246228844,542054.42658256]},"properties":{"NUM":10,"NAME":"FIRE STATION 10","ADDRESS":"2810 Wilkinson Bv","LATITUDE":35224158,"LONGITUDE":80887670,"PHONE_1":"704-399-2206","PHONE_2":"704-399-2207","Units":1,"Battalion":3,"BattHQ":1,"Long":"80° 53' 15.29\" W","Lat":"35° 13' 28.81\" N","Council":3,"YearBuilt":2005,"TOPO":"I-27","zip":"28208","po_name":"CHARLOTTE","State":"NC"}},
{"type":"Feature","geometry":{"type":"Point","coordinates":[1455673.030344963,533659.81345056]},"properties":{"NUM":6,"NAME":"FIRE STATION 6","ADDRESS":"249 S Laurel Av","LATITUDE":35202810,"LONGITUDE":80822617,"PHONE_1":"704-336-2668","PHONE_2":"704-336-2496","Units":1,"Battalion":1,"BattHQ":0,"Long":"80° 49' 20.21\" W","Lat":"35° 12' 9.37\" N","Council":1,"YearBuilt":1929,"TOPO":"L-29","zip":"28207","po_name":"CHARLOTTE","State":"NC"}},
{"type":"Feature","geometry":{"type":"Point","coordinates":[1474864.5188648105,524931.5933742225]},"properties":{"NUM":3,"NAME":"FIRE STATION 3","ADDRESS":"6512 Monroe Rd","LATITUDE":35179901,"LONGITUDE":80757330,"PHONE_1":"704-568-4141","PHONE_2":"704-568-7189","Units":1,"Battalion":4,"BattHQ":0,"Long":"80° 45' 27.10\" W","Lat":"35° 10' 46.47\" N","Council":5,"YearBuilt":1974,"TOPO":"P-32","zip":"28212","po_name":"CHARLOTTE","State":"NC"}},
{"type":"Feature","geometry":{"type":"Point","coordinates":[1480901.043209061,519315.9602485597]},"properties":{"NUM":29,"NAME":"FIRE STATION 29","ADDRESS":"2121 Margaret Wallace Rd","LATITUDE":35164046,"LONGITUDE":80737108,"PHONE_1":"704-537-9341","PHONE_2":"704-537-8671","Units":2,"Battalion":4,"BattHQ":0,"Long":"80° 44' 13.20\" W","Lat":"35° 9' 51.98\" N","Council":5,"YearBuilt":1989,"TOPO":"Q-33","zip":"28105","po_name":"CHARLOTTE","State":"NC"}},
{"type":"Feature","geometry":{"type":"Point","coordinates":[1452185.0409298837,541059.752062723]},"properties":{"NUM":1,"NAME":"FIRE STATION 1","ADDRESS":"221 N Myers St","LATITUDE":35222667,"LONGITUDE":80834059,"PHONE_1":"704-336-2150","PHONE_2":"704-336-2078","Units":2,"Battalion":1,"BattHQ":1,"Long":"80° 50' 3.89\" W","Lat":"35° 13' 21.92\" N","Council":1,"YearBuilt":1991,"TOPO":"L-27","zip":"28202","po_name":"CHARLOTTE","State":"NC"}},
{"type":"Feature","geometry":{"type":"Point","coordinates":[1502661.0134685487,546356.6269676387]},"properties":{"NUM":40,"NAME":"FIRE STATION 40","ADDRESS":"9720 Harrisburg Rd","LATITUDE":35238611,"LONGITUDE":80667222,"PHONE_1":"704-432-5159","PHONE_2":"704-432-5160","Units":2,"Battalion":2,"BattHQ":0,"Long":"80° 39' 56.59\" W","Lat":"35° 14' 23.10\" N","Council":5,"YearBuilt":2010,"TOPO":"T-26","zip":"28215","po_name":"CHARLOTTE","State":"NC"}},
{"type":"Feature","geometry":{"type":"Point","coordinates":[1462911.9751846343,523797.46900206804]},"properties":{"NUM":14,"NAME":"FIRE STATION 14","ADDRESS":"114 N Sharon Amity Rd","LATITUDE":35176134,"LONGITUDE":80797578,"PHONE_1":"704-364-8253","PHONE_2":"704-365-2987","Units":1,"Battalion":7,"BattHQ":0,"Long":"80° 47' 50.83\" W","Lat":"35° 10' 33.13\" N","Council":6,"YearBuilt":1962,"TOPO":"N-32","zip":"28211","po_name":"CHARLOTTE","State":"NC"}},
{"type":"Feature","geometry":{"type":"Point","coordinates":[1401069.8941446394,496039.0691383928]},"properties":{"NUM":37,"NAME":"FIRE STATION 37","ADDRESS":"13828 S Tryon St","LATITUDE":35096390,"LONGITUDE":81001645,"PHONE_1":"704-432-3954","PHONE_2":"704-432-3955","Units":1,"Battalion":5,"BattHQ":0,"Long":"81° 0' 8.97\" W","Lat":"35° 5' 46.90\" N","Council":3,"YearBuilt":2007,"TOPO":"D-39","zip":"28278","po_name":"CHARLOTTE","State":"NC"}},
{"type":"Feature","geometry":{"type":"Point","coordinates":[1422972.6009953022,538158.9927724004]},"properties":{"NUM":17,"NAME":"FIRE STATION 17","ADDRESS":"5308 Morris Field Dr","LATITUDE":35213303,"LONGITUDE":80931857,"PHONE_1":"704-359-8259","PHONE_2":"704-359-8299","Units":1,"Battalion":8,"BattHQ":1,"Long":"80° 55' 57.05\" W","Lat":"35° 12' 48.22\" N","Council":3,"YearBuilt":1985,"TOPO":"G-28","zip":"28208","po_name":"CHARLOTTE","State":"NC"}},
{"type":"Feature","geometry":{"type":"Point","coordinates":[1477891.9084793031,569806.6007369012]},"properties":{"NUM":27,"NAME":"FIRE STATION 27","ADDRESS":"111 Ken Hoffman Dr","LATITUDE":35302760,"LONGITUDE":80750461,"PHONE_1":"704-547-9355","PHONE_2":"704-547-9356","Units":2,"Battalion":2,"BattHQ":1,"Long":"80° 45' 0.16\" W","Lat":"35° 18' 10.81\" N","Council":4,"YearBuilt":1991,"TOPO":"P-20","zip":"28262","po_name":"CHARLOTTE","State":"NC"}},
{"type":"Feature","geometry":{"type":"Point","coordinates":[1453620.0452777147,476270.65099814534]},"properties":{"NUM":32,"NAME":"FIRE STATION 32","ADDRESS":"9225 Bryant Farms Rd","LATITUDE":35045128,"LONGITUDE":80825872,"PHONE_1":"704-544-3975","PHONE_2":"704-544-3976","Units":2,"Battalion":7,"BattHQ":0,"Long":"80° 49' 32.23\" W","Lat":"35° 2' 41.41\" N","Council":7,"YearBuilt":1997,"TOPO":"L-44","zip":"28277","po_name":"CHARLOTTE","State":"NC"}},
{"type":"Feature","geometry":{"type":"Point","coordinates":[1445032.9653390497,536898.3365010619]},"properties":{"NUM":2,"NAME":"FIRE STATION 2","ADDRESS":"1817 South Bv","LATITUDE":35211217,"LONGITUDE":80858298,"PHONE_1":"704-336-2580","PHONE_2":"704-336-2399","Units":2,"Battalion":3,"BattHQ":0,"Long":"80° 51' 29.14\" W","Lat":"35° 12' 39.44\" N","Council":1,"YearBuilt":1907,"TOPO":"K-28","zip":"28203","po_name":"CHARLOTTE","State":"NC"}},
{"type":"Feature","geometry":{"type":"Point","coordinates":[1455265.9320778102,551524.8771298081]},"properties":{"NUM":11,"NAME":"FIRE STATION 11","ADDRESS":"620 W 28th St","LATITUDE":35251211,"LONGITUDE":80824459,"PHONE_1":"704-336-2130","PHONE_2":"704-336-2730","Units":1,"Battalion":1,"BattHQ":0,"Long":"80° 49' 29.07\" W","Lat":"35° 15' 5.98\" N","Council":1,"YearBuilt":1958,"TOPO":"L-25","zip":"28206","po_name":"CHARLOTTE","State":"NC"}},
{"type":"Feature","geometry":{"type":"Point","coordinates":[1469950.9082852155,546088.0438433886]},"properties":{"NUM":15,"NAME":"FIRE STATION 15","ADDRESS":"3617 Frontenac Av","LATITUDE":35237270,"LONGITUDE":80775015,"PHONE_1":"704-568-4484","PHONE_2":"704-568-4416","Units":1,"Battalion":4,"BattHQ":0,"Long":"80° 46' 30.85\" W","Lat":"35° 14' 14.84\" N","Council":1,"YearBuilt":1965,"TOPO":"O-26","zip":"28215","po_name":"CHARLOTTE","State":"NC"}},
{"type":"Feature","geometry":{"type":"Point","coordinates":[1419932.255698055,508659.81030106544]},"properties":{"NUM":26,"NAME":"FIRE STATION 26","ADDRESS":"9231 S Tryon St","LATITUDE":35132236,"LONGITUDE":80940621,"PHONE_1":"704-588-6752","PHONE_2":"704-588-6753","Units":2,"Battalion":5,"BattHQ":0,"Long":"80° 56' 24.96\" W","Lat":"35° 7' 55.42\" N","Council":3,"YearBuilt":1989,"TOPO":"F-36","zip":"28273","po_name":"CHARLOTTE","State":"NC"}},
{"type":"Feature","geometry":{"type":"Point","coordinates":[1435296.9214909673,554097.0527597219]},"properties":{"NUM":13,"NAME":"FIRE STATION 13","ADDRESS":"4337 Glenwood Dr","LATITUDE":35254801,"LONGITUDE":80895001,"PHONE_1":"704-399-4710","PHONE_2":"704-399-4781","Units":2,"Battalion":3,"BattHQ":0,"Long":"80° 53' 30.42\" W","Lat":"35° 15' 27.72\" N","Council":2,"YearBuilt":1962,"TOPO":"I-24","zip":"28208","po_name":"CHARLOTTE","State":"NC"}},
{"type":"Feature","geometry":{"type":"Point","coordinates":[1485278.6794668883,539248.004701972]},"properties":{"NUM":23,"NAME":"FIRE STATION 23","ADDRESS":"7400 E W T Harris Bv","LATITUDE":35219440,"LONGITUDE":80723095,"PHONE_1":"704 536-0331","PHONE_2":"704 536-0332","Units":2,"Battalion":4,"BattHQ":0,"Long":"80° 43' 24.65\" W","Lat":"35° 13' 9.86\" N","Council":5,"YearBuilt":1978,"TOPO":"Q-28","zip":"28212","po_name":"CHARLOTTE","State":"NC"}},
{"type":"Feature","geometry":{"type":"Point","coordinates":[1455409.8153202236,580726.2688581496]},"properties":{"NUM":28,"NAME":"FIRE STATION 28","ADDRESS":"8031 Old Statesville Rd","LATITUDE":35331948,"LONGITUDE":80825792,"PHONE_1":"704-598-6990","PHONE_2":"704-598-7056","Units":2,"Battalion":6,"BattHQ":0,"Long":"80° 49' 33.82\" W","Lat":"35° 19' 54.80\" N","Council":2,"YearBuilt":1989,"TOPO":"L-17","zip":"28269","po_name":"CHARLOTTE","State":"NC"}},
{"type":"Feature","geometry":{"type":"Point","coordinates":[1474096.8301114738,595770.8194776475]},"properties":{"NUM":31,"NAME":"FIRE STATION 31","ADDRESS":"3820 Ridge Rd","LATITUDE":35373760,"LONGITUDE":80764192,"PHONE_1":"704-432-8239","PHONE_2":"704-432-8240","Units":2,"Battalion":6,"BattHQ":0,"Long":"80° 45' 51.52\" W","Lat":"35° 22' 26.93\" N","Council":4,"YearBuilt":1997,"TOPO":"O14","zip":"28269","po_name":"CHARLOTTE","State":"NC"}}
]}
